City_ID,City,Cloudiness,Country,Date,Humidity,Lat,Lng,Max Temp,Wind Speed
0,Faanui,15,PF,2022-08-01 00:47:02,71,-16.4833,-151.75,78.64,24.58
1,Erdenet,47,MN,2022-08-01 00:50:08,55,49.0333,104.0833,68.38,3.98
2,Manokwari,68,ID,2022-08-01 00:50:09,67,-0.8667,134.0833,82.51,3.91
3,Port Augusta,0,AU,2022-08-01 00:50:09,58,-32.5,137.7667,56.41,6.67
4,Hobart,75,AU,2022-08-01 00:49:02,71,-42.8794,147.3294,51.26,11.5
5,Ixtapa,100,MX,2022-08-01 00:50:10,84,20.7,-105.2,83.23,4.0
6,Teguise,75,ES,2022-08-01 00:50:10,83,29.0605,-13.564,70.02,16.11
7,Ushuaia,40,AR,2022-08-01 00:50:11,93,-54.8,-68.3,35.26,3.44
8,Rikitea,100,PF,2022-08-01 00:50:11,73,-23.1203,-134.9692,72.46,23.82
9,Bluff,100,NZ,2022-08-01 00:46:08,76,-46.6,168.3333,50.81,17.27
10,Punta Arenas,75,CL,2022-08-01 00:46:03,75,-53.15,-70.9167,42.91,8.05
11,Gedinne,0,BE,2022-08-01 00:50:12,96,49.9804,4.9367,63.91,2.62
12,Bambous Virieux,40,MU,2022-08-01 00:49:00,83,-20.3428,57.7575,68.25,9.22
13,Mahebourg,40,MU,2022-08-01 00:50:12,83,-20.4081,57.7,68.29,9.22
14,Aksarka,38,RU,2022-08-01 00:50:12,74,66.5606,67.7975,52.9,5.44
15,Matara,72,LK,2022-08-01 00:50:13,92,5.9485,80.5353,76.77,10.2
16,Vila Velha,75,BR,2022-08-01 00:46:46,84,-20.3297,-40.2925,71.55,3.44
17,Fairbanks,75,US,2022-08-01 00:50:03,73,64.8378,-147.7164,66.31,4.61
18,Hutang,0,CN,2022-08-01 00:50:13,67,31.5333,119.4833,86.94,3.91
19,Wyszkow,100,PL,2022-08-01 00:50:14,98,52.5928,21.4584,61.95,7.36
20,Victoria,97,HK,2022-08-01 00:48:10,76,22.2855,114.1577,91.26,1.99
21,Hermanus,0,ZA,2022-08-01 00:50:14,73,-34.4187,19.2345,38.8,6.58
22,Jamestown,20,US,2022-08-01 00:50:15,73,42.097,-79.2353,74.84,4.61
23,Chulakivka,100,UA,2022-08-01 00:50:15,51,46.3576,32.3514,72.12,1.52
24,Kavaratti,100,IN,2022-08-01 00:50:15,83,10.5669,72.642,78.71,23.98
25,Cabo San Lucas,33,MX,2022-08-01 00:46:41,80,22.8909,-109.9124,85.51,3.0
26,Qaanaaq,100,GL,2022-08-01 00:50:16,64,77.484,-69.3632,44.74,2.48
27,Airai,60,TL,2022-08-01 00:50:16,63,-8.9266,125.4092,69.22,2.84
28,San Angelo,0,US,2022-08-01 00:46:08,20,31.4638,-100.437,100.62,9.22
29,Sambava,41,MG,2022-08-01 00:50:17,90,-14.2667,50.1667,66.52,8.84
30,Maniitsoq,44,GL,2022-08-01 00:50:17,86,65.4167,-52.9,43.14,7.27
31,Mataura,100,NZ,2022-08-01 00:50:18,73,-46.1927,168.8643,50.49,9.24
32,Tautira,90,PF,2022-08-01 00:50:18,69,-17.7333,-149.15,76.87,24.23
33,Provideniya,0,RU,2022-08-01 00:45:51,76,64.3833,-173.3,50.36,7.0
34,Palmer,75,US,2022-08-01 00:46:04,75,42.1584,-72.3287,77.61,0.0
35,Hornepayne,100,CA,2022-08-01 00:50:19,88,49.2138,-84.7705,64.9,4.23
36,Jasper,20,US,2022-08-01 00:47:42,59,37.2001,-94.3502,88.02,9.22
37,Port Elizabeth,0,ZA,2022-08-01 00:49:41,87,-33.918,25.5701,47.32,5.75
38,Port Alfred,0,ZA,2022-08-01 00:50:19,73,-33.5906,26.891,52.2,9.66
39,Saskylakh,100,RU,2022-08-01 00:50:20,77,71.9167,114.0833,45.64,10.36
40,Thompson,75,CA,2022-08-01 00:50:20,94,55.7435,-97.8558,57.36,3.44
41,Mwene-Ditu,9,CD,2022-08-01 00:50:21,55,-7.0,23.45,70.09,3.65
42,Cape Town,0,ZA,2022-08-01 00:50:21,76,-33.9258,18.4232,55.38,7.0
43,Constitucion,100,CL,2022-08-01 00:47:14,90,-35.3333,-72.4167,48.88,3.98
44,Mamontovo,24,RU,2022-08-01 00:50:21,58,52.7055,81.6244,67.68,11.05
45,Touros,91,BR,2022-08-01 00:46:19,84,-5.1989,-35.4608,76.51,12.97
46,Yellowknife,40,CA,2022-08-01 00:46:58,40,62.456,-114.3525,68.52,9.22
47,Kapoeta,100,SS,2022-08-01 00:51:22,83,4.7717,33.5903,70.59,4.43
48,Tuktoyaktuk,40,CA,2022-08-01 00:51:22,48,69.4541,-133.0374,64.4,3.44
49,Mandalgovi,100,MN,2022-08-01 00:51:23,38,45.7625,106.2708,73.99,10.27
50,Axim,100,GH,2022-08-01 00:51:23,83,4.8699,-2.2405,74.39,12.62
51,Leningradskiy,49,RU,2022-08-01 00:51:23,64,69.3833,178.4167,51.37,8.19
52,Adrar,15,MR,2022-08-01 00:51:23,34,20.5022,-10.0711,92.59,12.44
53,Lasa,0,IT,2022-08-01 00:47:43,88,46.6166,10.7002,65.28,4.32
54,Necochea,99,AR,2022-08-01 00:51:24,80,-38.5473,-58.7368,50.68,7.45
55,Great Yarmouth,19,GB,2022-08-01 00:51:24,91,52.6083,1.7305,63.01,9.42
56,Bethel,100,US,2022-08-01 00:51:25,65,41.3712,-73.414,79.03,5.23
57,San Juan,10,AR,2022-08-01 00:50:41,31,-31.5375,-68.5364,58.51,6.11
58,Cayenne,94,GF,2022-08-01 00:51:25,1,4.9333,-52.3333,83.08,0.0
59,Kapaa,40,US,2022-08-01 00:51:25,68,22.0752,-159.319,84.52,17.27
60,Izhmorskiy,100,RU,2022-08-01 00:51:26,95,56.194,86.6414,62.8,3.76
61,Georgetown,40,MY,2022-08-01 00:50:05,87,5.4112,100.3354,81.9,1.14
62,Mehamn,100,NO,2022-08-01 00:51:26,94,71.0357,27.8492,57.15,1.14
63,Mar Del Plata,0,AR,2022-08-01 00:51:26,86,-38.0023,-57.5575,55.09,4.61
64,Korla,30,CN,2022-08-01 00:51:27,40,41.7597,86.1469,78.3,14.67
65,Torbay,20,CA,2022-08-01 00:51:27,77,47.6666,-52.7314,68.77,17.27
66,Batagay-Alyta,100,RU,2022-08-01 00:51:27,53,67.8006,130.4114,70.99,11.95
67,Shellbrook,100,CA,2022-08-01 00:51:28,65,53.2168,-106.4011,69.03,4.25
68,Tomatlan,98,MX,2022-08-01 00:51:28,75,19.9333,-105.25,81.66,4.7
69,Batagay,100,RU,2022-08-01 00:47:04,43,67.6333,134.6333,79.72,10.51
70,Pozo Colorado,6,PY,2022-08-01 00:51:28,53,-23.4923,-58.7972,67.37,5.68
71,Barrow,75,US,2022-08-01 00:51:29,87,71.2906,-156.7887,35.62,9.22
72,Atuona,14,PF,2022-08-01 00:51:29,73,-9.8,-139.0333,77.05,12.68
73,Nikolskoye,100,RU,2022-08-01 00:51:29,84,59.7035,30.7861,58.8,4.32
74,Abu Samrah,0,SY,2022-08-01 00:51:30,61,35.3029,37.1841,73.71,6.91
75,Harper,100,LR,2022-08-01 00:47:44,80,4.375,-7.7169,75.04,12.73
76,Kavieng,84,PG,2022-08-01 00:51:30,69,-2.5744,150.7967,85.17,14.36
77,Lorengau,99,PG,2022-08-01 00:51:31,68,-2.0226,147.2712,85.41,11.79
78,Roald,75,NO,2022-08-01 00:51:31,93,62.5833,6.1333,56.16,4.61
79,Khatanga,60,RU,2022-08-01 00:51:32,64,71.9667,102.5,48.16,10.71
80,Marsabit,86,KE,2022-08-01 00:51:32,77,2.3284,37.9899,61.9,21.79
81,Camopi,53,GF,2022-08-01 00:51:32,99,3.1655,-52.3158,71.87,2.13
82,Sao Filipe,11,CV,2022-08-01 00:51:33,75,14.8961,-24.4956,75.49,6.29
83,Ribeira Grande,19,PT,2022-08-01 00:51:33,76,38.5167,-28.7,73.76,5.32
84,Cidreira,3,BR,2022-08-01 00:51:33,89,-30.1811,-50.2056,58.66,9.53
85,Upata,100,VE,2022-08-01 00:51:34,96,8.0086,-62.3989,76.19,4.63
86,Bilibino,46,RU,2022-08-01 00:51:34,39,68.0546,166.4372,65.46,6.11
87,Albany,100,US,2022-08-01 00:49:34,67,42.6001,-73.9662,76.46,2.48
88,Hilo,0,US,2022-08-01 00:49:04,67,19.7297,-155.09,86.29,13.8
89,Tynda,100,RU,2022-08-01 00:51:35,87,55.1667,124.7167,65.93,3.18
90,Norman Wells,20,CA,2022-08-01 00:47:10,46,65.282,-126.8329,73.44,10.36
91,Olafsvik,100,IS,2022-08-01 00:47:12,65,64.8945,-23.7142,48.54,6.44
92,Dikson,100,RU,2022-08-01 00:51:35,94,73.5069,80.5464,41.25,9.55
93,Hami,100,CN,2022-08-01 00:51:58,25,42.8,93.45,86.4,6.78
94,Busselton,100,AU,2022-08-01 00:52:36,88,-33.65,115.3333,60.01,23.35
95,Zabol,1,AF,2022-08-01 00:52:36,53,32.25,67.25,71.53,3.4
96,Tasiilaq,23,GL,2022-08-01 00:52:36,50,65.6145,-37.6368,38.97,4.99
97,Abha,20,SA,2022-08-01 00:52:37,60,18.2164,42.5053,68.25,11.5
98,New Norfolk,99,AU,2022-08-01 00:52:37,82,-42.7826,147.0587,50.92,4.0
99,Korcula,0,HR,2022-08-01 00:52:37,55,42.9622,17.1369,77.7,7.34
100,Mongo,100,TD,2022-08-01 00:52:38,88,12.1844,18.693,73.9,4.34
101,Kruisfontein,0,ZA,2022-08-01 00:47:44,78,-34.0033,24.7314,45.07,6.24
102,Puerto Ayora,77,EC,2022-08-01 00:52:38,91,-0.7393,-90.3518,71.55,5.01
103,Akyab,100,MM,2022-08-01 00:52:38,78,20.15,92.9,83.52,1.45
104,Grand Gaube,1,MU,2022-08-01 00:52:39,75,-20.0064,57.6608,68.4,10.0
105,Ballina,100,AU,2022-08-01 00:52:39,87,-28.8667,153.5667,64.02,9.84
106,San Patricio,100,US,2022-08-01 00:52:39,60,28.017,-97.5169,90.54,14.14
107,Ballybofey,93,IE,2022-08-01 00:52:40,93,54.8,-7.7833,46.2,1.66
108,Bengkulu,83,ID,2022-08-01 00:52:40,82,-3.8004,102.2655,77.85,3.04
109,Castro,0,BR,2022-08-01 00:52:40,78,-24.7911,-50.0119,52.38,2.42
110,Galesong,99,ID,2022-08-01 00:52:41,78,-5.3166,119.3661,78.82,2.3
111,Christchurch,0,NZ,2022-08-01 00:50:05,57,-43.5333,172.6333,55.33,9.22
112,Aklavik,68,CA,2022-08-01 00:52:41,44,68.2191,-135.0107,67.21,4.0
113,Codrington,89,AU,2022-08-01 00:52:42,83,-38.2667,141.9667,51.76,17.96
114,Comodoro Rivadavia,0,AR,2022-08-01 00:52:12,48,-45.8667,-67.5,40.86,4.61
115,Chuy,91,UY,2022-08-01 00:52:42,81,-33.6971,-53.4616,47.82,3.53
116,Hithadhoo,100,MV,2022-08-01 00:52:42,74,-0.6,73.0833,80.73,16.35
117,La Rioja,0,ES,2022-08-01 00:52:43,77,42.25,-2.5,58.78,4.09
118,Acarau,6,BR,2022-08-01 00:52:43,82,-2.8856,-40.12,78.64,14.58
119,Kaitangata,100,NZ,2022-08-01 00:47:45,64,-46.2817,169.8464,47.48,7.85
120,Saint-Philippe,44,RE,2022-08-01 00:52:44,81,-21.3585,55.7679,67.59,13.56
121,Mount Gambier,5,AU,2022-08-01 00:48:36,79,-37.8333,140.7667,53.49,13.65
122,Carnarvon,100,AU,2022-08-01 00:52:03,75,-24.8667,113.6333,69.42,15.75
123,Llallagua,1,BO,2022-08-01 00:52:44,18,-18.4167,-66.6333,45.21,2.26
124,Kawambwa,0,ZM,2022-08-01 00:52:45,47,-9.7915,29.0791,58.71,6.55
125,Talnakh,2,RU,2022-08-01 00:52:45,56,69.4865,88.3972,47.21,19.77
126,Upernavik,100,GL,2022-08-01 00:52:45,68,72.7868,-56.1549,48.76,0.45
127,Butaritari,73,KI,2022-08-01 00:52:46,78,3.0707,172.7902,81.48,13.11
128,Darnah,0,LY,2022-08-01 00:52:46,78,32.767,22.6367,78.31,15.17
129,Kodiak,100,US,2022-08-01 00:52:46,68,57.79,-152.4072,63.91,4.61
130,Shakawe,0,BW,2022-08-01 00:52:47,26,-18.3667,21.85,56.01,6.13
131,Tigil,13,RU,2022-08-01 00:52:47,46,57.8,158.6667,67.66,3.56
132,Lompoc,0,US,2022-08-01 00:52:48,71,34.6391,-120.4579,77.85,14.97
133,Guiratinga,0,BR,2022-08-01 00:52:21,33,-16.3494,-53.7583,70.79,1.19
134,Meulaboh,100,ID,2022-08-01 00:52:48,86,4.1363,96.1285,77.68,4.34
135,San Cristobal,100,VE,2022-08-01 00:52:49,99,7.7669,-72.225,69.98,1.79
136,Shelabolikha,99,RU,2022-08-01 00:52:49,63,53.4131,82.6167,67.48,6.2
137,Jieshi,11,CN,2022-08-01 00:52:49,72,22.8134,115.8257,86.32,10.31
138,Trofors,100,NO,2022-08-01 00:53:50,97,65.5333,13.4063,57.07,4.03
139,Pringsewu,46,ID,2022-08-01 00:53:50,90,-5.3582,104.9744,77.29,1.01
140,Bredasdorp,0,ZA,2022-08-01 00:53:50,83,-34.5322,20.0403,41.77,3.56
141,Banda Aceh,100,ID,2022-08-01 00:53:51,76,5.5577,95.3222,81.16,9.6
142,North Bend,20,US,2022-08-01 00:53:51,91,43.4065,-124.2243,70.92,10.36
143,Nanortalik,71,GL,2022-08-01 00:53:51,92,60.1432,-45.2371,46.54,6.53
144,Tongzhou,0,CN,2022-08-01 00:53:52,89,39.9053,116.5994,82.51,2.24
145,Namatanai,44,PG,2022-08-01 00:53:52,70,-3.6667,152.4333,84.42,11.14
146,Laguna,75,US,2022-08-01 00:53:53,50,38.421,-121.4238,90.97,5.99
147,Cabra,0,ES,2022-08-01 00:53:53,61,37.4725,-4.4421,75.97,6.22
148,Tateyama,84,JP,2022-08-01 00:53:53,75,34.9833,139.8667,84.83,8.37
149,Ito,54,JP,2022-08-01 00:53:53,74,34.9667,139.0833,90.68,1.99
150,Parabel,100,RU,2022-08-01 00:52:15,72,58.6978,81.4825,53.15,13.13
151,Hay River,20,CA,2022-08-01 00:53:54,51,60.8156,-115.7999,64.36,9.22
152,Amulung,100,PH,2022-08-01 00:53:54,85,17.8357,121.7237,80.78,4.27
153,Severo-Kurilsk,73,RU,2022-08-01 00:53:55,81,50.6789,156.125,54.7,10.47
154,Huarmey,10,PE,2022-08-01 00:53:55,84,-10.0681,-78.1522,62.65,9.86
155,Shingu,80,JP,2022-08-01 00:51:45,64,33.7333,135.9833,88.84,7.83
156,Huangchuan,0,CN,2022-08-01 00:53:55,72,32.1272,115.0394,84.9,1.57
157,Tulsipur,98,NP,2022-08-01 00:53:56,87,28.131,82.2973,75.27,1.74
158,Eureka,90,US,2022-08-01 00:53:56,79,40.8021,-124.1637,79.66,7.0
159,Kenai,0,US,2022-08-01 00:53:56,71,60.5544,-151.2583,69.03,12.66
160,Ponta Do Sol,3,PT,2022-08-01 00:53:56,78,32.6667,-17.1,72.01,3.0
161,Arraial Do Cabo,0,BR,2022-08-01 00:53:57,69,-22.9661,-42.0278,68.34,10.04
162,Da Lat,100,VN,2022-08-01 00:50:04,90,11.9465,108.4419,66.67,2.86
163,Avarua,20,CK,2022-08-01 00:53:57,73,-21.2078,-159.775,77.05,14.97
164,Muros,1,ES,2022-08-01 00:53:58,69,42.7762,-9.0603,71.17,10.8
165,Coihaique,100,CL,2022-08-01 00:53:58,70,-45.5752,-72.0662,37.35,5.75
166,Holme,100,DK,2022-08-01 00:53:58,93,56.1138,10.1725,62.17,6.67
167,Natal,75,BR,2022-08-01 00:50:06,89,-5.795,-35.2094,79.02,6.91
168,Ancud,100,CL,2022-08-01 00:53:59,84,-41.8697,-73.8203,42.22,1.23
169,Tshane,67,BW,2022-08-01 00:53:59,26,-24.0196,21.8684,56.61,11.81
170,Amqui,60,CA,2022-08-01 00:54:00,75,48.4638,-67.4313,69.26,4.99
171,Padang,100,ID,2022-08-01 00:54:00,82,-0.9492,100.3543,77.05,3.02
172,Tiksi,100,RU,2022-08-01 00:54:01,94,71.6872,128.8694,40.64,17.74
173,Dutlwe,13,BW,2022-08-01 00:54:01,31,-23.9833,23.9,56.98,9.95
174,Erenhot,100,CN,2022-08-01 00:54:01,38,43.6475,111.9767,82.69,8.05
175,Katsuura,96,JP,2022-08-01 00:54:02,72,35.1333,140.3,86.59,8.79
176,Koulamoutou,4,GA,2022-08-01 00:54:02,74,-1.1303,12.4736,70.57,2.26
177,Brightwater,6,NZ,2022-08-01 00:54:03,88,-41.3833,173.1167,52.68,4.34
178,Russell,0,US,2022-08-01 00:54:03,70,32.3502,-85.1999,88.83,0.0
179,Panjab,0,AF,2022-08-01 00:54:03,79,34.388,67.0233,49.08,5.08
180,Alta Floresta,12,BR,2022-08-01 00:51:16,39,-9.8756,-56.0861,76.35,2.26
181,Arapiraca,36,BR,2022-08-01 00:54:04,97,-9.7525,-36.6611,66.78,4.7
182,Katobu,95,ID,2022-08-01 00:54:04,83,-4.9408,122.5276,79.57,7.96
183,Faya,89,SA,2022-08-01 00:55:05,63,18.3851,42.4509,68.52,7.2
184,Belaya Gora,98,RU,2022-08-01 00:55:05,35,68.5333,146.4167,80.02,12.28
185,Kijang,94,KR,2022-08-01 00:55:05,88,35.2442,129.2139,87.53,8.05
186,Belem De Sao Francisco,2,BR,2022-08-01 00:55:06,77,-8.7539,-38.9658,73.35,20.27
187,Kalevala,75,RU,2022-08-01 00:55:06,97,65.2,31.1667,49.64,3.02
188,Talikota,77,IN,2022-08-01 00:55:07,75,16.4833,76.3167,78.51,7.61
189,Lagoa,0,PT,2022-08-01 00:54:31,74,39.05,-27.9833,72.41,7.74
190,Garissa,36,KE,2022-08-01 00:54:24,83,-0.4536,39.6401,71.6,13.91
191,Graaff-Reinet,0,ZA,2022-08-01 00:55:07,63,-32.2522,24.5308,41.77,1.41
192,Esperance,100,AU,2022-08-01 00:53:04,54,-33.8667,121.9,53.15,19.28
193,Geraldton,75,AU,2022-08-01 00:55:08,59,-28.7667,114.6,66.61,24.16
194,Fukue,75,JP,2022-08-01 00:55:08,94,32.6881,128.8419,80.96,24.16
195,Sinjar,0,IQ,2022-08-01 00:55:08,26,36.3209,41.8754,88.21,8.01
196,Marzuq,2,YE,2022-08-01 00:55:09,68,14.4,46.4667,74.89,14.12
197,Vaini,75,TO,2022-08-01 00:55:09,89,-21.2,-175.2,80.76,6.91
198,Wrzesnia,6,PL,2022-08-01 00:55:09,93,52.3251,17.5652,62.55,4.41
199,Znamenskoye,95,RU,2022-08-01 00:55:10,85,57.1281,73.8282,55.69,7.45
200,Hanstholm,52,DK,2022-08-01 00:55:10,79,57.1167,8.6167,57.63,20.15
201,Asau,6,RO,2022-08-01 00:55:10,94,46.4333,26.4,60.28,5.35
202,Gizo,4,SB,2022-08-01 00:55:11,68,-8.103,156.8419,84.52,3.67
203,Shahr-E Babak,100,IR,2022-08-01 00:55:11,68,30.1165,55.1186,71.87,3.78
204,Cherskiy,87,RU,2022-08-01 00:55:11,35,68.75,161.3,71.22,18.52
205,East London,0,ZA,2022-08-01 00:50:43,63,-33.0153,27.9116,53.85,7.34
206,Hasaki,100,JP,2022-08-01 00:55:12,69,35.7333,140.8333,93.29,4.63
207,Maceio,20,BR,2022-08-01 00:55:12,88,-9.6658,-35.7353,74.64,5.75
208,Talagante,100,CL,2022-08-01 00:55:13,85,-33.6667,-70.9333,56.34,2.62
209,Hamilton,0,US,2022-08-01 00:52:10,82,39.1834,-84.5333,75.31,5.75
210,Noumea,96,NC,2022-08-01 00:55:13,99,-22.2763,166.4572,75.18,13.71
211,Kawalu,48,ID,2022-08-01 00:55:13,72,-7.3817,108.2082,77.05,1.41
212,College,75,US,2022-08-01 00:55:14,73,64.8569,-147.8028,67.28,0.0
213,Kollo,100,NE,2022-08-01 00:55:14,71,13.3043,2.339,77.99,6.51
214,Nhulunbuy,40,AU,2022-08-01 00:55:15,65,-12.2333,136.7667,83.01,12.66
215,Urucui,90,BR,2022-08-01 00:55:15,52,-7.2294,-44.5561,78.89,3.2
216,Clyde River,100,CA,2022-08-01 00:55:15,100,70.4692,-68.5914,35.83,4.61
217,Almaty,75,KZ,2022-08-01 00:52:41,63,43.25,76.95,64.31,6.71
218,Saint-Augustin,74,CA,2022-08-01 00:55:16,65,51.226,-58.6502,66.54,9.24
219,La Huerta,100,MX,2022-08-01 00:55:16,82,19.4667,-104.65,77.86,2.44
220,Iqaluit,75,CA,2022-08-01 00:51:54,82,63.7506,-68.5145,47.93,10.36
221,Port Blair,40,IN,2022-08-01 00:52:27,94,11.6667,92.75,78.84,2.3
222,Mantua,0,IT,2022-08-01 00:55:17,81,45.1667,10.7833,78.04,7.16
223,Naze,100,JP,2022-08-01 00:54:31,83,28.3667,129.4833,81.52,20.76
224,Villamontes,6,BO,2022-08-01 00:55:17,57,-21.25,-63.5,65.46,4.94
225,Omboue,39,GA,2022-08-01 00:55:18,92,-1.5746,9.2618,71.87,8.9
226,Sande,70,DE,2022-08-01 00:55:18,94,53.5049,8.0142,63.05,11.14
227,Khudumelapye,12,BW,2022-08-01 00:55:18,34,-23.8833,24.75,55.38,7.61
228,Machaneng,6,BW,2022-08-01 00:55:19,28,-23.1862,27.4886,60.01,10.98
229,Bairiki,20,KI,2022-08-01 00:55:19,74,1.3292,172.9752,86.0,10.36
230,Ushtobe,73,KZ,2022-08-01 00:56:19,40,45.2514,77.9838,73.18,2.73
231,Oda,99,JP,2022-08-01 00:56:20,68,35.1833,132.5,84.97,9.62
232,Moro,58,PK,2022-08-01 00:56:20,71,26.6646,68.0016,86.65,7.63
233,Imbituva,0,BR,2022-08-01 00:56:20,75,-25.23,-50.6044,51.84,0.04
234,La Ronge,40,CA,2022-08-01 00:56:21,49,55.1001,-105.2842,71.82,9.22
235,Ayan,100,RU,2022-08-01 00:56:21,95,56.45,138.1667,57.42,9.64
236,Omsukchan,52,RU,2022-08-01 00:56:21,51,62.5333,155.8,60.71,11.56
237,Puerto Del Rosario,100,ES,2022-08-01 00:53:19,83,28.5004,-13.8627,73.15,12.66
238,Buraydah,98,SA,2022-08-01 00:52:17,51,26.326,43.975,88.25,12.82
239,Tugolesskiy Bor,63,RU,2022-08-01 00:56:22,74,55.5505,39.8242,53.69,3.87
240,Araouane,58,ML,2022-08-01 00:56:22,35,18.9048,-3.5265,91.83,10.07
241,Abilene,100,US,2022-08-01 00:56:23,22,32.4487,-99.7331,98.78,1.01
242,Namibe,4,AO,2022-08-01 00:56:23,80,-15.1961,12.1522,56.93,10.58
243,Hovd,96,MN,2022-08-01 00:56:23,51,48.0056,91.6419,68.07,1.41
244,Amarante,99,BR,2022-08-01 00:56:24,73,-6.2411,-42.8547,76.64,1.97
245,Nouadhibou,0,MR,2022-08-01 00:56:24,78,20.931,-17.0347,75.18,9.22
246,Libreville,75,GA,2022-08-01 00:56:24,88,0.3925,9.4537,75.22,8.05
247,Yar-Sale,5,RU,2022-08-01 00:56:25,70,66.8333,70.8333,51.48,6.8
248,Northam,66,GB,2022-08-01 00:56:25,96,51.0333,-4.2167,59.25,2.66
249,Datong,5,CN,2022-08-01 00:55:34,56,40.0936,113.2914,79.12,4.36
250,Chokurdakh,100,RU,2022-08-01 00:56:25,61,70.6333,147.9167,67.87,10.47
251,Broome,95,US,2022-08-01 00:56:26,82,42.2506,-75.833,72.36,3.04
252,Makakilo City,40,US,2022-08-01 00:56:26,52,21.3469,-158.0858,84.56,14.97
253,Bubaque,100,GW,2022-08-01 00:56:26,78,11.2833,-15.8333,79.21,15.9
254,Poum,96,NC,2022-08-01 00:56:27,72,-20.2333,164.0167,73.26,12.06
255,Kudahuvadhoo,100,MV,2022-08-01 00:56:27,72,2.6708,72.8944,81.09,22.41
256,Vestmannaeyjar,66,IS,2022-08-01 00:53:10,75,63.4427,-20.2734,49.23,18.34
257,Ada,100,US,2022-08-01 00:56:27,13,43.4166,-116.1262,103.91,8.99
258,Avera,25,US,2022-08-01 00:52:34,39,33.194,-82.5271,87.31,6.22
259,Barra Bonita,0,BR,2022-08-01 00:56:28,51,-22.4947,-48.5581,62.69,4.21
260,Nechi,60,CO,2022-08-01 00:56:28,95,8.0942,-74.7757,77.59,0.85
261,Buala,21,SB,2022-08-01 00:56:28,70,-8.145,159.5921,85.06,12.15
262,Vila Franca Do Campo,9,PT,2022-08-01 00:56:29,85,37.7167,-25.4333,70.21,4.65
263,Calabozo,100,VE,2022-08-01 00:56:29,88,8.9242,-67.4293,75.18,3.85
264,Butler,40,US,2022-08-01 00:53:52,79,39.4501,-84.5666,74.68,6.91
265,Isangel,40,VU,2022-08-01 00:56:30,69,-19.55,169.2667,80.71,8.05
266,Manta,75,EC,2022-08-01 00:52:30,83,-0.95,-80.7333,71.38,12.66
267,Baraboo,40,US,2022-08-01 00:52:20,70,43.4711,-89.7443,80.01,8.05
268,Salalah,100,OM,2022-08-01 00:56:30,94,17.0151,54.0924,75.67,8.9
269,Pevek,0,RU,2022-08-01 00:56:31,59,69.7008,170.3133,50.77,11.43
270,Kibakwe,54,TZ,2022-08-01 00:56:31,88,-6.7167,36.3667,59.85,2.95
271,Coquimbo,40,CL,2022-08-01 00:56:31,94,-29.9533,-71.3436,55.13,6.91
272,Mezen,100,RU,2022-08-01 00:56:32,99,65.8522,44.24,57.54,3.42
273,Saint George,0,US,2022-08-01 00:51:58,48,37.1041,-113.5841,89.64,13.8
274,Biak,100,ID,2022-08-01 00:56:32,84,-0.9131,122.8766,77.99,3.47
275,Alencon,3,FR,2022-08-01 00:56:33,96,48.4333,0.0833,58.75,3.69
276,Radhanpur,50,IN,2022-08-01 00:56:33,77,23.8333,71.6,80.74,14.76
277,Richards Bay,100,ZA,2022-08-01 00:57:33,75,-28.783,32.0377,60.35,9.55
278,Devonport,28,AU,2022-08-01 00:57:34,75,-41.1667,146.35,53.1,14.18
279,Kieta,98,PG,2022-08-01 00:57:34,68,-6.2167,155.6333,85.41,6.04
280,Kahului,11,US,2022-08-01 00:57:35,75,20.8947,-156.47,84.97,15.99
281,Laurel,100,US,2022-08-01 00:55:06,95,39.0993,-76.8483,72.99,1.99
282,Baniachang,100,BD,2022-08-01 00:57:35,93,24.5167,91.3667,78.62,5.48
283,Taoudenni,77,ML,2022-08-01 00:57:36,27,22.6783,-3.9836,94.95,10.87
284,Nanga Eboko,100,CM,2022-08-01 00:57:36,99,4.6833,12.3667,66.74,4.25
285,Phan Thiet,99,VN,2022-08-01 00:57:36,82,10.9333,108.1,81.39,6.58
286,West Bay,20,KY,2022-08-01 00:57:37,75,19.3667,-81.4167,89.08,13.8
287,Nybro,100,SE,2022-08-01 00:57:37,93,56.7446,15.9071,50.81,2.42
288,Rocha,65,UY,2022-08-01 00:54:36,80,-34.4833,-54.3333,47.84,4.09
289,Novikovo,67,RU,2022-08-01 00:57:38,64,51.1537,37.8879,59.16,7.49
290,Tonj,97,SS,2022-08-01 00:57:38,97,7.2737,28.6822,68.97,3.98
291,Gat,0,IL,2022-08-01 00:57:39,74,31.61,34.7642,75.88,2.42
292,Yulara,57,AU,2022-08-01 00:57:39,31,-25.2406,130.9889,59.97,13.73
293,Dalbandin,5,PK,2022-08-01 00:57:39,25,28.8947,64.4101,86.74,7.34
294,Ambo,17,PE,2022-08-01 00:57:40,87,-10.1308,-76.2047,60.71,3.44
295,Labuhan,43,ID,2022-08-01 00:57:40,76,-6.8844,112.2051,79.09,5.66
296,Baoro,100,CF,2022-08-01 00:57:40,98,5.6667,15.9667,65.91,2.98
297,Krasnovishersk,100,RU,2022-08-01 00:57:41,94,60.4078,57.082,61.61,2.8
298,Emba,100,KZ,2022-08-01 00:57:41,48,48.8264,58.1442,72.07,4.29
299,Whitehorse,75,CA,2022-08-01 00:56:29,48,60.7161,-135.0538,69.03,6.91
300,Mount Isa,0,AU,2022-08-01 00:57:41,23,-20.7333,139.5,76.77,6.91
301,Marawi,100,PH,2022-08-01 00:57:42,65,7.9986,124.2928,78.44,0.72
302,Sao Felix Do Xingu,11,BR,2022-08-01 00:57:42,69,-6.6447,-51.995,75.25,0.85
303,Oakdale,75,US,2022-08-01 00:55:40,68,44.963,-92.9649,83.43,12.66
304,Nelson Bay,100,AU,2022-08-01 00:57:43,84,-32.7167,152.15,60.01,7.0
305,Male,100,MV,2022-08-01 00:54:45,83,4.1748,73.5089,82.35,21.85
306,San Quintin,7,MX,2022-08-01 00:57:43,65,30.4833,-115.95,74.14,10.16
307,Koulikoro,100,ML,2022-08-01 00:57:43,72,14.0,-7.75,77.65,8.93
308,Penzance,75,GB,2022-08-01 00:57:44,87,50.1186,-5.5371,63.28,8.3
309,Los Llanos De Aridane,75,ES,2022-08-01 00:57:44,94,28.6585,-17.9182,69.55,17.27
310,Kargasok,95,RU,2022-08-01 00:57:44,74,59.0556,80.8572,52.86,12.71
311,Mlowo,0,TZ,2022-08-01 00:57:45,78,-9.0,32.9833,53.19,1.81
312,Souillac,40,MU,2022-08-01 00:57:45,83,-20.5167,57.5167,68.38,9.22
313,Charo,75,MX,2022-08-01 00:57:46,88,19.75,-101.05,59.92,5.75
314,Adeje,0,ES,2022-08-01 00:57:46,78,28.1227,-16.726,79.88,4.61
315,Lebu,100,CL,2022-08-01 00:57:47,83,-37.6167,-73.65,46.62,4.27
316,Leshukonskoye,100,RU,2022-08-01 00:57:47,97,64.8989,45.7622,57.78,2.28
317,Along,100,IN,2022-08-01 00:57:47,99,28.1667,94.7667,74.7,0.72
318,Conceicao Do Araguaia,100,BR,2022-08-01 00:57:48,40,-8.2578,-49.2647,83.77,4.92
319,Longyearbyen,40,SJ,2022-08-01 00:54:35,81,78.2186,15.6401,49.84,10.36
320,Taltal,0,CL,2022-08-01 00:57:48,79,-25.4,-70.4833,59.34,2.77
321,Skibbereen,91,IE,2022-08-01 00:57:49,86,51.55,-9.2667,58.1,3.8
322,Pilar Do Sul,0,BR,2022-08-01 00:57:49,83,-23.8131,-47.7164,52.65,4.9
323,Kano,15,NG,2022-08-01 00:58:49,74,12.0001,8.5167,75.16,7.4
324,Yendi,100,GH,2022-08-01 00:58:50,95,9.4427,-0.0099,73.33,3.44
325,Margate,100,GB,2022-08-01 00:58:50,91,51.3813,1.3862,65.3,1.99
326,Inongo,100,CD,2022-08-01 00:58:50,65,-1.95,18.2667,71.49,4.21
327,Kulhudhuffushi,100,MV,2022-08-01 00:58:51,82,6.6221,73.07,77.47,35.7
328,Kushiro,75,JP,2022-08-01 00:57:23,88,42.975,144.3747,65.35,6.91
329,Itaqui,0,BR,2022-08-01 00:58:51,79,-29.1253,-56.5531,55.54,7.09
330,Jilin,100,CN,2022-08-01 00:58:51,80,43.0,126.0,79.07,3.58
331,Krasnoselkup,0,RU,2022-08-01 00:54:39,64,65.7,82.4667,48.11,23.94
332,Urumqi,0,CN,2022-08-01 00:58:52,57,43.801,87.6005,72.55,4.47
333,Bentiu,100,SS,2022-08-01 00:58:53,93,9.2333,29.8333,71.37,4.16
334,Lata,0,PT,2022-08-01 00:58:24,56,40.1629,-8.3327,70.09,3.44
335,Jalu,0,LY,2022-08-01 00:58:53,48,29.0331,21.5482,82.02,15.23
336,Cap Malheureux,0,MU,2022-08-01 00:58:53,75,-19.9842,57.6142,68.47,8.99
337,Grande Prairie,75,CA,2022-08-01 00:57:45,68,55.1667,-118.8027,71.78,3.44
338,Floro,45,NO,2022-08-01 00:58:54,76,61.5996,5.0328,53.56,11.5
339,Batangafo,100,CF,2022-08-01 00:58:54,96,7.3008,18.2833,69.58,3.76
340,Honiara,10,SB,2022-08-01 00:58:54,60,-9.4333,159.95,88.43,10.67
341,Ostrovnoy,88,RU,2022-08-01 00:55:46,83,68.0531,39.5131,54.28,4.99
342,Nador,5,MA,2022-08-01 00:58:55,89,35.174,-2.9287,78.87,5.73
343,Husavik,100,IS,2022-08-01 00:58:55,93,66.0449,-17.3389,41.88,9.71
344,Tuatapere,100,NZ,2022-08-01 00:58:56,81,-46.1333,167.6833,48.76,8.59
345,Cape Canaveral,97,US,2022-08-01 00:58:56,78,28.4058,-80.6048,85.06,11.36
346,Hurghada,0,EG,2022-08-01 00:58:57,30,27.2574,33.8129,87.84,8.05
347,Berlevag,90,NO,2022-08-01 00:58:57,93,70.8578,29.0864,57.2,2.28
348,Dwarka,100,IN,2022-08-01 00:58:57,81,22.2394,68.9678,80.55,20.6
349,Abu Dhabi,0,AE,2022-08-01 00:58:58,45,24.4667,54.3667,98.71,8.05
350,Imbituba,100,BR,2022-08-01 00:58:58,95,-28.24,-48.6703,57.09,9.8
351,Yerbogachen,26,RU,2022-08-01 00:55:54,68,61.2767,108.0108,72.37,2.98
352,Minamata,52,JP,2022-08-01 00:58:59,72,32.2167,130.4,86.49,14.52
353,Xingcheng,0,CN,2022-08-01 00:58:59,80,40.6167,120.7167,80.55,7.23
354,Zhigansk,48,RU,2022-08-01 00:59:00,65,66.7697,123.3711,70.47,3.33
355,Jibuti,81,DJ,2022-08-01 00:59:00,46,11.5,42.5,83.53,17.09
356,Kiama,2,AU,2022-08-01 00:59:00,59,-34.6833,150.8667,63.57,5.01
357,Quatre Cocos,39,MU,2022-08-01 00:59:01,68,-20.2078,57.7625,68.11,11.95
358,Sisimiut,15,GL,2022-08-01 00:59:01,84,66.9395,-53.6735,44.22,1.16
359,Tikapur,90,NP,2022-08-01 00:59:01,84,28.5,81.1333,80.24,3.02
360,Pisco,100,PE,2022-08-01 00:54:52,82,-13.7,-76.2167,60.85,9.22
361,Saint-Paul,36,RE,2022-08-01 00:59:02,74,-21.0096,55.2707,68.11,5.75
362,Biryusinsk,0,RU,2022-08-01 01:00:02,80,55.9634,97.8235,68.22,6.51
363,Vallenar,100,CL,2022-08-01 01:00:03,57,-28.5708,-70.7581,62.76,2.44
364,Amga,65,RU,2022-08-01 01:00:03,46,60.8953,131.9608,81.7,6.31
365,Bundaberg,100,AU,2022-08-01 01:00:04,73,-24.85,152.35,69.22,4.0
366,Kipini,95,KE,2022-08-01 01:00:04,73,-2.5257,40.5262,76.26,18.19
367,Itoman,75,JP,2022-08-01 01:00:05,94,26.1247,127.6694,78.82,19.57
368,Yekaterinburg,100,RU,2022-08-01 01:00:05,100,56.8575,60.6125,60.39,8.95
369,Fuerte Olimpo,100,PY,2022-08-01 01:00:05,38,-21.0415,-57.8738,78.44,5.17
370,Kyzyl-Suu,100,KG,2022-08-01 01:00:06,68,42.3414,78.0056,59.63,1.9
371,Pangnirtung,100,CA,2022-08-01 01:00:06,82,66.1451,-65.7125,48.27,1.39
372,Auki,12,SB,2022-08-01 01:00:07,64,-8.7676,160.7034,85.68,5.19
373,Lashio,100,MM,2022-08-01 01:00:07,99,22.9333,97.75,70.5,0.98
374,Udachnyy,100,RU,2022-08-01 01:00:08,87,66.4167,112.4,55.45,17.65
375,Kondinskoye,100,RU,2022-08-01 01:00:09,71,59.6481,67.41,54.9,10.16
376,Vao,78,NC,2022-08-01 01:00:09,77,-22.6667,167.4833,69.84,25.48
377,Durania,100,CO,2022-08-01 01:00:09,94,7.7131,-72.6576,66.67,3.51
378,Atoyac,100,MX,2022-08-01 01:00:10,91,20.0167,-103.5333,67.08,0.47
379,Rio Grande,14,BR,2022-08-01 00:59:53,92,-32.035,-52.0986,50.11,7.63
380,Zavetnoye,0,RU,2022-08-01 01:00:10,53,47.1194,43.8903,77.74,6.87
381,Hobyo,0,SO,2022-08-01 01:00:11,84,5.3505,48.5268,75.13,22.01
382,Xiamen,0,CN,2022-08-01 01:00:04,72,24.4798,118.0819,84.58,3.44
383,Itupiranga,63,BR,2022-08-01 01:00:11,95,-5.1347,-49.3267,72.46,3.83
384,Ocos,100,GT,2022-08-01 01:00:12,86,14.5094,-92.1933,76.08,11.43
385,Sao Joao Da Barra,0,BR,2022-08-01 01:00:12,72,-21.6403,-41.0511,67.3,6.06
386,Santona,24,ES,2022-08-01 01:00:13,89,43.4439,-3.4576,71.91,2.53
387,Sangar,100,RU,2022-08-01 01:00:13,80,63.9242,127.4739,68.83,12.77
388,Arlit,10,NE,2022-08-01 01:00:14,31,18.7369,7.3853,93.29,17.13
389,Mackay,0,AU,2022-08-01 01:00:08,73,-21.15,149.2,75.69,7.96
390,Nambucca Heads,25,AU,2022-08-01 01:00:14,52,-30.65,153.0,64.0,10.63
391,Lavrentiya,95,RU,2022-08-01 01:00:15,69,65.5833,-171.0,48.81,4.76
392,Stephenville,0,US,2022-08-01 01:00:11,24,32.2207,-98.2023,99.39,10.36
393,Muncar,85,ID,2022-08-01 00:57:05,80,-8.4333,114.3333,77.99,3.89
394,Rabo De Peixe,75,PT,2022-08-01 01:00:16,88,37.8,-25.5833,69.31,3.44
395,Tawau,100,MY,2022-08-01 01:00:16,89,4.2498,117.8871,77.56,5.06
396,Kota Belud,100,MY,2022-08-01 01:00:17,87,6.351,116.4305,77.7,1.43
397,Marsala,0,IT,2022-08-01 01:00:17,71,37.7966,12.4352,77.94,11.32
398,Khuzdar,73,PK,2022-08-01 01:00:17,86,27.7384,66.6434,74.55,4.59
399,Bathsheba,98,BB,2022-08-01 01:00:18,90,13.2167,-59.5167,82.06,19.08
400,Turtas,100,RU,2022-08-01 01:00:18,76,58.9417,69.1325,54.59,7.87
401,Turukhansk,98,RU,2022-08-01 01:00:19,70,65.8167,87.9833,50.65,12.53
402,Bondo,67,CD,2022-08-01 01:00:19,96,3.8146,23.6866,67.1,0.36
403,Klaksvik,86,FO,2022-08-01 00:59:06,83,62.2266,-6.589,50.58,13.78
404,Palm Coast,100,US,2022-08-01 01:00:20,87,29.585,-81.2078,84.13,8.01
405,Wanning,4,CN,2022-08-01 01:00:20,71,18.8003,110.3967,85.8,4.99
406,Aswan,28,EG,2022-08-01 01:00:21,18,24.0934,32.907,85.62,7.83
407,Tazovskiy,7,RU,2022-08-01 01:00:21,73,67.4667,78.7,46.62,14.03
408,Saint-Leu,37,RE,2022-08-01 01:01:21,74,-21.15,55.2833,67.06,3.31
409,Zaragoza,0,ES,2022-08-01 01:01:22,65,41.6561,-0.8773,78.03,16.11
410,Fortuna,0,US,2022-08-01 00:56:22,76,40.5982,-124.1573,71.92,13.8
411,Middelburg,18,ZA,2022-08-01 01:01:22,81,-25.7751,29.4648,51.22,10.51
412,Soe,97,ID,2022-08-01 01:01:23,71,-9.8607,124.284,72.64,6.22
413,Uppsala,100,SE,2022-08-01 01:01:23,77,60.0,17.75,62.04,6.91
414,Alice Springs,2,AU,2022-08-01 01:01:23,38,-23.7,133.8833,58.55,18.41
415,Demidov,100,RU,2022-08-01 01:01:24,65,55.2706,31.515,60.69,5.28
416,Saldanha,0,ZA,2022-08-01 01:01:24,79,-33.0117,17.9442,50.72,13.35
417,China,77,MX,2022-08-01 00:57:51,40,25.7,-99.2333,91.53,24.16
418,Caravelas,81,BR,2022-08-01 00:59:37,90,-17.7125,-39.2481,69.84,7.72
419,New Haven,0,US,2022-08-01 01:01:25,59,41.4001,-72.9329,78.31,4.0
420,Bronnoysund,100,NO,2022-08-01 01:01:25,100,65.4625,12.1997,53.6,10.36
421,Rock Sound,35,BS,2022-08-01 01:01:25,79,24.9,-76.2,83.03,18.7
422,Ambilobe,0,MG,2022-08-01 00:58:47,85,-13.2,49.05,62.62,3.67
423,Okhotsk,100,RU,2022-08-01 01:01:26,86,59.3833,143.3,59.0,8.1
424,Grindavik,75,IS,2022-08-01 01:01:26,81,63.8424,-22.4338,48.67,13.8
425,Ciudad Real,0,ES,2022-08-01 01:01:26,34,39.0,-4.0,83.1,5.01
426,Puerto Escondido,61,MX,2022-08-01 01:01:27,80,15.85,-97.0667,81.86,4.05
427,Inhambane,6,MZ,2022-08-01 01:01:17,85,-23.865,35.3833,65.79,5.53
428,Carmo Do Rio Claro,5,BR,2022-08-01 01:01:27,47,-20.9719,-46.1189,62.31,1.72
429,Fort Nelson,100,CA,2022-08-01 01:01:28,83,58.8053,-122.7002,66.42,2.17
430,Baykit,100,RU,2022-08-01 01:01:28,85,61.67,96.37,61.47,3.18
431,Henties Bay,94,NA,2022-08-01 00:59:42,72,-22.116,14.2845,54.09,5.37
432,Vardo,100,NO,2022-08-01 01:01:28,100,70.3705,31.1107,49.98,2.3
433,Kuusamo,75,FI,2022-08-01 01:01:29,94,65.9667,29.1833,53.64,1.14
434,Pacific Grove,100,US,2022-08-01 00:56:32,81,36.6177,-121.9166,77.54,5.01
435,Sorong,40,ID,2022-08-01 00:57:12,76,-0.8833,131.25,81.27,1.86
436,Tulum,4,MX,2022-08-01 01:01:29,85,20.2167,-87.4667,79.77,5.73
437,Bend,0,US,2022-08-01 00:58:31,12,44.0582,-121.3153,97.27,8.05
438,Paamiut,100,GL,2022-08-01 01:01:30,88,61.994,-49.6678,45.93,5.03
439,Ahipara,13,NZ,2022-08-01 01:01:30,56,-35.1667,173.1667,58.39,7.58
440,Svetlaya,100,RU,2022-08-01 01:01:30,94,46.5389,138.3297,63.5,1.97
441,Paranapanema,0,BR,2022-08-01 01:01:31,65,-23.3886,-48.7228,56.57,5.19
442,Vostok,100,RU,2022-08-01 00:59:17,66,46.4856,135.8833,77.16,3.76
443,Westport,100,US,2022-08-01 00:59:29,64,41.1415,-73.3579,78.62,3.0
444,Muyezerskiy,100,RU,2022-08-01 01:01:31,95,63.9333,31.65,49.73,3.65
445,Senneterre,99,CA,2022-08-01 01:01:32,57,48.3835,-77.2328,71.17,6.31
446,Great Falls,0,US,2022-08-01 01:01:32,10,47.5002,-111.3008,98.67,6.91
447,Mattoon,0,US,2022-08-01 01:01:33,91,39.4831,-88.3728,76.55,6.26
448,Souris,82,CA,2022-08-01 01:01:33,74,49.6172,-100.2612,70.74,5.06
449,Ewa Beach,40,US,2022-08-01 01:02:34,52,21.3156,-158.0072,85.98,18.99
450,Erzin,6,TR,2022-08-01 01:02:34,88,36.9559,36.2,73.44,1.07
451,Winslow,70,US,2022-08-01 00:58:14,47,35.0242,-110.6974,77.05,12.88
452,Karratha,81,AU,2022-08-01 01:02:35,62,-20.7377,116.8463,74.61,3.8
453,Mayor Pablo Lagerenza,48,PY,2022-08-01 01:02:35,42,-19.9309,-60.7718,75.06,3.47
454,Talcahuano,100,CL,2022-08-01 01:00:16,84,-36.7167,-73.1167,49.14,4.18
455,Jinchang,9,CN,2022-08-01 01:02:35,59,38.4953,102.1739,74.55,10.58
456,Sassandra,100,CI,2022-08-01 01:02:36,80,4.95,-6.0833,74.59,11.65
457,Tilichiki,19,RU,2022-08-01 00:59:50,63,60.4667,166.1,56.53,7.2
458,Grafton,0,US,2022-08-01 01:02:27,68,42.207,-71.6856,77.58,5.75
459,Ferkessedougou,100,CI,2022-08-01 01:02:36,91,9.6,-5.2,72.64,4.38
460,Stepnyak,100,KZ,2022-08-01 01:02:36,91,52.8339,70.7803,61.38,7.43
461,Aykhal,100,RU,2022-08-01 01:02:37,93,66.0,111.5,54.36,14.29
462,Nioro,100,GM,2022-08-01 01:01:33,94,13.35,-15.75,71.82,8.57
463,Kamaishi,100,JP,2022-08-01 00:59:12,81,39.2667,141.8833,78.91,4.81
464,Fort Saint James,6,CA,2022-08-01 01:02:37,26,54.4333,-124.25,85.33,9.42
465,Nago,100,JP,2022-08-01 01:02:38,85,26.5881,127.9761,77.45,14.0
466,The Valley,100,AI,2022-08-01 01:02:38,77,18.217,-63.0578,83.1,19.01
467,Viedma,100,AR,2022-08-01 01:02:38,70,-40.8135,-62.9967,45.23,6.85
468,Pingxiang,8,CN,2022-08-01 00:59:21,55,27.6167,113.85,89.4,1.1
469,Vrangel,100,RU,2022-08-01 01:02:39,98,42.7297,133.0839,68.99,14.36
470,Valkeakoski,28,FI,2022-08-01 01:02:39,79,61.2642,24.0312,59.43,4.7
471,Nantucket,0,US,2022-08-01 01:02:40,88,41.2835,-70.0995,75.31,8.05
472,Vangaindrano,35,MG,2022-08-01 01:02:40,94,-23.35,47.6,63.99,5.17
473,Pandan,100,PH,2022-08-01 01:02:41,70,14.0453,124.1694,85.24,5.53
474,Bogatoye,14,RU,2022-08-01 01:02:42,78,53.0601,51.3325,61.86,3.09
475,Mahibadhoo,100,MV,2022-08-01 01:02:42,70,3.7833,72.9667,81.68,22.75
476,Itarema,2,BR,2022-08-01 01:02:42,83,-2.9248,-39.9167,78.55,13.94
477,Monrovia,100,LR,2022-08-01 01:02:43,85,6.3005,-10.7969,75.63,8.99
478,Kurchum,39,KZ,2022-08-01 01:02:43,58,48.5722,83.6542,68.2,3.47
479,Luderitz,0,NA,2022-08-01 01:02:44,52,-26.6481,15.1594,57.42,7.0
480,Salinopolis,100,BR,2022-08-01 01:00:21,86,-0.6136,-47.3561,78.15,9.28
481,Moratuwa,78,LK,2022-08-01 01:02:44,87,6.773,79.8816,80.62,9.4
482,Raga,93,SS,2022-08-01 01:02:44,97,8.4596,25.678,68.81,5.55
483,Paka,100,MY,2022-08-01 01:02:45,83,4.6374,103.4368,80.02,4.27
484,Elko,86,US,2022-08-01 01:02:45,7,41.0002,-115.5012,96.64,5.01
485,Oranjemund,0,NA,2022-08-01 01:02:46,49,-28.55,16.4333,53.92,10.22
486,Ukiah,17,US,2022-08-01 00:59:52,52,39.1502,-123.2078,94.44,5.01
487,Sibut,100,CF,2022-08-01 01:02:46,95,5.718,19.0739,70.39,1.63
488,Zambezi,0,ZM,2022-08-01 01:01:27,30,-13.5432,23.1047,55.45,5.5
489,Tarata,0,BO,2022-08-01 01:02:47,61,-17.6167,-66.0167,60.22,5.1
490,Narsaq,99,GL,2022-08-01 01:02:47,86,60.9167,-46.05,48.42,2.86
491,Mugur-Aksy,100,RU,2022-08-01 01:02:47,88,50.35,90.5,51.17,2.82
492,Lalibela,81,ET,2022-08-01 01:02:48,85,12.0333,39.0333,57.56,0.51
493,Lakes Entrance,4,AU,2022-08-01 01:02:48,49,-37.8811,147.981,59.16,11.83
494,Sheopur,100,IN,2022-08-01 01:02:49,76,25.6667,76.7,81.14,7.54
495,Hirara,100,JP,2022-08-01 01:02:49,84,24.8,125.2833,81.45,10.09
496,Invermere,0,CA,2022-08-01 01:02:41,14,50.5167,-116.0354,95.36,6.22
497,Kholm-Zhirkovskiy,100,RU,2022-08-01 01:03:50,69,55.5189,33.4731,57.18,6.22
498,Naica,100,MX,2022-08-01 01:03:50,15,27.85,-105.4833,89.44,15.68
499,Liverpool,99,GB,2022-08-01 01:01:42,81,53.4106,-2.9779,55.35,6.91
500,Kushima,100,JP,2022-08-01 01:03:50,91,31.4583,131.2333,82.44,11.92
501,Beian,75,NO,2022-08-01 01:03:51,87,63.6559,9.5683,53.01,3.44
502,Cocorit,55,MX,2022-08-01 01:03:51,40,27.5833,-109.9667,88.14,3.74
503,Flin Flon,97,CA,2022-08-01 01:03:51,67,54.7682,-101.865,64.06,4.38
504,San Rafael,3,AR,2022-08-01 01:03:52,36,-34.6177,-68.3301,51.15,4.52
505,Mecca,100,SA,2022-08-01 01:01:41,24,21.4267,39.8261,88.59,4.0
506,Rawson,100,AR,2022-08-01 01:02:21,78,-43.3002,-65.1023,46.92,8.43
507,Tura,100,IN,2022-08-01 01:03:52,99,25.5198,90.2201,73.8,5.75
508,Davila,100,PH,2022-08-01 01:02:31,76,18.4726,120.5763,83.89,10.2
509,Akhisar,0,TR,2022-08-01 01:03:53,79,38.9185,27.8401,68.74,6.2
510,Bhatgaon,40,IN,2022-08-01 01:03:53,100,21.15,81.7,80.78,3.44
511,Yeppoon,100,AU,2022-08-01 01:00:05,74,-23.1333,150.7333,62.38,8.05
512,Albert Lea,40,US,2022-08-01 01:03:54,73,43.648,-93.3683,78.94,9.22
513,Garden City,2,US,2022-08-01 01:00:27,64,42.3256,-83.331,79.99,1.99
514,Batticaloa,97,LK,2022-08-01 01:03:54,82,7.7102,81.6924,79.72,5.26
515,Brewster,100,US,2022-08-01 01:03:55,68,41.3973,-73.6171,78.28,3.89
516,Susuman,100,RU,2022-08-01 01:03:55,76,62.7833,148.1667,58.15,7.25
517,Sechura,6,PE,2022-08-01 01:03:55,78,-5.5569,-80.8222,63.41,15.26
518,Nagua,1,DO,2022-08-01 01:03:56,92,19.3832,-69.8474,78.76,6.33
519,Ugoofaaru,100,MV,2022-08-01 01:03:56,83,5.6667,73.0,76.84,34.2
520,San Vicente De Canete,43,PE,2022-08-01 01:03:57,82,-13.0751,-76.3835,61.25,2.95
521,Harlingen,0,US,2022-08-01 01:03:57,79,26.1906,-97.6961,87.06,12.66
522,Rundu,3,NA,2022-08-01 01:03:57,30,-17.9333,19.7667,55.72,4.9
523,Nanning,0,CN,2022-08-01 01:02:34,70,22.8167,108.3167,85.44,6.73
524,Arona,0,ES,2022-08-01 01:03:58,78,28.0996,-16.681,73.69,4.61
525,Burdur,0,TR,2022-08-01 01:03:58,56,37.7203,30.2908,72.3,6.91
526,Zanjan,5,IR,2022-08-01 01:03:59,61,36.6736,48.4787,67.57,3.98
527,Waingapu,48,ID,2022-08-01 01:03:59,69,-9.6567,120.2641,80.69,9.53
528,Haines Junction,100,CA,2022-08-01 01:03:59,55,60.7522,-137.5108,63.86,6.24
529,Karanganyar,36,ID,2022-08-01 01:04:00,73,-6.7072,111.0834,80.08,4.0
530,Qaqortoq,100,GL,2022-08-01 01:04:00,94,60.7167,-46.0333,45.7,4.47
531,Valdez,92,EC,2022-08-01 01:04:01,84,1.2492,-78.9831,77.22,14.07
532,Farafangana,14,MG,2022-08-01 01:04:01,93,-22.8167,47.8333,65.05,5.55
533,Novoilinsk,15,RU,2022-08-01 01:04:02,58,51.6829,108.7143,72.59,5.37
534,Kiruna,90,SE,2022-08-01 01:04:02,93,67.8557,20.2251,45.52,4.61
535,Deputatskiy,100,RU,2022-08-01 01:04:02,64,69.3,139.9,69.51,3.91
536,Carutapera,100,BR,2022-08-01 01:01:51,93,-1.195,-46.02,75.85,5.1
537,Bac Lieu,100,VN,2022-08-01 01:04:03,84,9.285,105.7244,81.9,9.55
538,Trairi,0,BR,2022-08-01 01:01:58,83,-3.2778,-39.2689,78.21,10.63
539,Goderich,26,CA,2022-08-01 01:02:41,67,43.7501,-81.7165,74.91,6.31
540,Rubtsovsk,90,RU,2022-08-01 01:04:04,75,51.5,81.25,64.87,10.2
541,Llanes,56,ES,2022-08-01 01:04:04,79,43.4198,-4.7549,68.63,6.49
542,Gamba,89,GA,2022-08-01 01:05:04,92,-2.65,10.0,71.65,7.38
543,Thinadhoo,100,MV,2022-08-01 01:05:05,72,0.5333,72.9333,81.46,15.26
544,Sept-Iles,83,CA,2022-08-01 01:04:44,83,50.2001,-66.3821,65.05,1.01
545,Honningsvag,100,NO,2022-08-01 01:03:15,88,70.9821,25.9704,55.15,4.61
546,Port Macquarie,100,AU,2022-08-01 01:05:05,59,-31.4333,152.9167,64.89,8.14
547,Romita,75,MX,2022-08-01 01:05:06,68,20.8667,-101.5167,72.23,0.0
548,Dno,100,RU,2022-08-01 01:05:06,70,57.8277,29.9637,59.11,4.07
549,Anloga,99,GH,2022-08-01 01:05:06,84,5.7947,0.8973,74.7,16.06
550,Kysyl-Syr,100,RU,2022-08-01 01:05:07,96,63.8986,122.7617,65.66,5.44
551,Khash,24,IR,2022-08-01 01:03:37,66,28.2211,61.2158,76.48,1.74
552,Mehran,0,IR,2022-08-01 01:05:07,16,33.1222,46.1646,94.12,10.6
553,Misratah,0,LY,2022-08-01 01:05:08,75,32.3754,15.0925,81.63,10.49
554,Moengo,99,SR,2022-08-01 01:05:08,97,5.6167,-54.4,73.65,2.24
555,Alberton,0,CA,2022-08-01 01:05:09,73,46.8168,-64.0654,69.57,5.84
556,Kamyshlov,97,RU,2022-08-01 01:05:09,96,56.8428,62.7111,60.06,9.53
557,Beloha,2,MG,2022-08-01 01:05:09,93,-25.1667,45.05,63.84,5.03
558,Rorvik,100,NO,2022-08-01 01:05:10,92,64.8621,11.2373,53.98,18.23
559,Nyagan,62,RU,2022-08-01 01:05:10,68,62.1406,65.3936,53.65,4.68
560,Porto Tolle,0,IT,2022-08-01 01:05:11,66,44.9497,12.3245,74.03,2.71
561,Dondo,2,MZ,2022-08-01 01:05:11,93,-19.6094,34.7431,61.54,0.58
562,Dong Hoi,7,VN,2022-08-01 01:05:11,64,17.4833,106.6,86.79,1.81
